[
  {
    "stop_id": "1253",
    "stop_code": "",
    "stop_name": "晴海三丁目",
    "stop_desc": "",
    "stop_lat": "35.655677",
    "stop_lon": "139.781999",
    "zone_id": "",
    "stop_url": "https://tobus.jp/blsys/navi?LCD=&VCD=cresultrsi&ECD=aprslt&slst=1253",
    "location_type": "1",
    "parent_station": "",
    "stop_timezone": "",
    "wheelchair_boarding": ""
  },
  {
    "stop_id": "1253-01",
    "stop_code": "",
    "stop_name": "のりば",
    "stop_desc": "",
    "stop_lat": "35.655677",
    "stop_lon": "139.781999",
    "zone_id": "",
    "stop_url": "https://tobus.jp/blsys/navi?LCD=&VCD=cresultrsi&ECD=aprslt&slst=1253",
    "location_type": "0",
    "parent_station": "1253",
    "stop_timezone": "",
    "wheelchair_boarding": ""
  },
  {
    "stop_id": "1253-02",
    "stop_code": "",
    "stop_name": "のりば",
    "stop_desc": "",
    "stop_lat": "35.655812",
    "stop_lon": "139.780929",
    "zone_id": "",
    "stop_url": "https://tobus.jp/blsys/navi?LCD=&VCD=cresultrsi&ECD=aprslt&slst=1253",
    "location_type": "0",
    "parent_station": "1253",
    "stop_timezone": "",
    "wheelchair_boarding": ""
  },
  {
    "stop_id": "1253-03",
    "stop_code": "",
    "stop_name": "のりば",
    "stop_desc": "",
    "stop_lat": "35.654633",
    "stop_lon": "139.781174",
    "zone_id": "",
    "stop_url": "https://tobus.jp/blsys/navi?LCD=&VCD=cresultrsi&ECD=aprslt&slst=1253",
    "location_type": "0",
    "parent_station": "1253",
    "stop_timezone": "",
    "wheelchair_boarding": ""
  },
  {
    "stop_id": "0737",
    "stop_code": "",
    "stop_name": "新橋駅前",
    "stop_desc": "ＪＲ横須賀線 新橋:ＪＲ京浜東北線 新橋:東京メトロ銀座線 新橋:ＪＲ山手線 新橋:ゆりかもめ 新橋:都営浅草線 新橋:ＪＲ東海道本線 新橋",
    "stop_lat": "35.666884",
    "stop_lon": "139.758506",
    "zone_id": "",
    "stop_url": "https://tobus.jp/blsys/navi?LCD=&VCD=cresultrsi&ECD=aprslt&slst=737",
    "location_type": "1",
    "parent_station": "",
    "stop_timezone": "",
    "wheelchair_boarding": ""
  },
  {
    "stop_id": "0737-01",
    "stop_code": "",
    "stop_name": "１番のりば",
    "stop_desc": "ＪＲ京浜東北線 新橋:ＪＲ山手線 新橋:都営浅草線 新橋:東京メトロ銀座線 新橋:ＪＲ横須賀線 新橋:ＪＲ東海道本線 新橋:ゆりかもめ 新橋",
    "stop_lat": "35.666884",
    "stop_lon": "139.758506",
    "zone_id": "",
    "stop_url": "https://tobus.jp/blsys/navi?LCD=&VCD=cresultrsi&ECD=aprslt&slst=737",
    "location_type": "0",
    "parent_station": "0737",
    "stop_timezone": "",
    "wheelchair_boarding": ""
  },
  {
    "stop_id": "0737-02",
    "stop_code": "",
    "stop_name": "３番のりば",
    "stop_desc": "ゆりかもめ 新橋:東京メトロ銀座線 新橋:都営浅草線 新橋:ＪＲ東海道本線 新橋:ＪＲ横須賀線 新橋:ＪＲ山手線 新橋:ＪＲ京浜東北線 新橋",
    "stop_lat": "35.666424",
    "stop_lon": "139.759223",
    "zone_id": "",
    "stop_url": "https://tobus.jp/blsys/navi?LCD=&VCD=cresultrsi&ECD=aprslt&slst=737",
    "location_type": "0",
    "parent_station": "0737",
    "stop_timezone": "",
    "wheelchair_boarding": ""
  }
]
